{         "adminName1": "",         "countryCode": "ZW",         "countryName": "Zimbabwe",         "lat": -18.62987,         "lng": 27.02104,         "name": "Hwange National Park Airport",         "toponymName": "Hwange National Park Airport"}
{         "adminName1": "",         "countryCode": "NI",         "countryName":"Niger","lat": 12.07596,         "lng": 2.5235,         "name": "W National Park",         "toponymName": "Parc National du W du Niger"}
{         "adminName1": "",         "countryCode": "NP",         "countryName": "Nepal",         "lat": 28.25,         "lng": 85.5,         "name": "Lāṅṭāṇ National Park",         "toponymName": "Lāṅṭāṇ National Park"}
{         "adminName1": "Nyeri",         "countryCode": "KE",         "countryName": "Kenya",         "lat": -0.36715,         "lng": 36.65878,         "name": "Aberdare National Park",         "toponymName": "Aberdare National Park"}
{         "adminName1": "",         "countryCode": "ME",         "countryName": "Montenegro",         "lat": 42.405,         "lng": 18.81833,         "name": "Lovcen National Park",         "toponymName": "Lovcen National Park"}
{         "adminName1": "",         "countryCode": "MG",         "countryName": "Madagascar",         "lat": -22.55833,         "lng": 45.4,         "name": "Isalo National Park",         "toponymName": "Isalo National Park"}
{         "adminName1": "",         "countryCode": "MG",         "countryName": "Madagascar",         "lat": -21.36788,         "lng": 47.39025,         "name": "Ranomafana National Park",         "toponymName": "Ranomafana National Park"}
{         "adminName1": "Western Region",         "countryCode": "UG",         "countryName": "Uganda",         "lat": 2.16003,         "lng": 31.75909,         "name": "Kabalega Falls National Park",         "toponymName": "Kabalega Falls National Park"}
{         "adminName1": "Nairobi Area",         "countryCode": "KE",         "countryName": "Kenya",         "lat": -1.36667,         "lng": 36.83333,         "name": "Nairobi National Park",         "toponymName": "Nairobi National Park"}
{         "adminName1": "",         "countryCode": "CX",         "countryName": "Christmas Island",         "lat": -10.48333,         "lng": 105.65,         "name": "Christmas Island National Park",         "toponymName": "Christmas Island National Park"}
{         "adminName1": "",         "countryCode": "ZA",         "countryName": "South Africa",         "lat": -32.33137,         "lng": 22.50029,         "name": "Karoo National Park",         "toponymName": "Karoo National Park"}
{         "adminName1": "",         "countryCode": "LK",         "countryName": "Sri Lanka",         "lat": 8.4106,         "lng": 80.051,         "name": "Wilpattu National Park",         "toponymName": "Wilpattu National Park"}
{         "adminName1": "Queensland",         "countryCode": "AU",         "countryName": "Australia",         "lat": -27.315,         "lng": 152.76083,         "name": "D’Aguilar National Park",         "toponymName": "D’Aguilar National Park"}
{         "adminName1": "",         "countryCode": "BA",         "countryName": "Bosnia and Herzegovina",         "lat": 45.00833,         "lng": 16.89167,         "name": "Kozara National Park",         "toponymName": "Kozara National Park"}
{         "adminName1": "Queensland",         "countryCode": "AU",         "countryName": "Australia",         "lat": -27.315,         "lng": 152.76083,         "name": "DAguilar National Park",         "toponymName": "D'Aguilar National Park"}
{         "adminName1": "",         "countryCode": "TZ",         "countryName": "Tanzania",         "lat": -2.33333,         "lng": 34.83333,         "name": "Serengeti National Park",         "toponymName": "Serengeti National Park"}
{         "adminName1": "Western Australia",         "countryCode": "AU",         "countryName": "Australia",         "lat": -34.65212,         "lng": 117.8963,         "name": "Porongurup National Park",         "toponymName": "Porongurup National Park"}
{         "adminName1": "",         "countryCode": "KE",         "countryName": "Kenya",         "lat": -3,         "lng": 38.66667,         "name": "Tsavo National Park",         "toponymName": "Tsavo National Park"}
{         "adminName1": "Kilifi",         "countryCode": "KE",         "countryName": "Kenya",         "lat": -3.3,         "lng": 40.01667,         "name": "Gede National Park",         "toponymName": "Gede National Park"}
{         "adminName1": "",         "countryCode": "NZ",         "countryName": "New Zealand",         "lat": -39.3,         "lng": 174.06667,         "name": "Egmont National Park",         "toponymName": "Egmont National Park"}
{         "adminName1": "Manu'a",         "countryCode": "AS",         "countryName": "American Samoa",         "lat": -14.23973,         "lng": -169.45381,         "name": "National Park of American Samoa",         "toponymName": "National Park of American Samoa"}
{         "adminName1": "AL.20",         "countryCode": "AL",         "countryName": "Albania",         "lat": 39.75943,         "lng": 20.03467,         "name": "Butrint National Park",         "toponymName": "Butrint National Park"}
{         "adminName1": "",         "countryCode": "HR",         "countryName": "Croatia",         "lat": 45.4321,         "lng": 14.622,         "name": "Risnjak National Park",         "toponymName": "Risnjak National Park"}
{         "adminName1": "",         "countryCode": "MG",         "countryName": "Madagascar",         "lat": -16.08333,         "lng": 45.23333,         "name": "Baie de Baly National Park",         "toponymName": "Baie de Baly National Park"}
{         "adminName1": "",         "countryCode": "MG",         "countryName": "Madagascar",         "lat": -23.70725,         "lng": 47.09719,         "name": "Midongy du Sud National Park",         "toponymName": "Midongy du Sud National Park"}
{         "adminName1": "",         "countryCode": "MG",         "countryName": "Madagascar",         "lat": -12.23769,         "lng": 49.01357,         "name": "Nosy Hara National Park",         "toponymName": "Nosy Hara National Park"}
{         "adminName1": "",         "countryCode": "MG",         "countryName": "Madagascar",         "lat": -22.84173,         "lng": 44.68178,         "name": "Zombitse-Vohibasia National Park",         "toponymName": "Zombitse-Vohibasia National Park"}
{         "adminName1": "KE.02",         "countryCode": "KE",         "countryName": "Kenya",         "lat": -0.20861,         "lng": 38.73611,         "name": "Kora National Park",         "toponymName": "Kora National Park"}
{         "adminName1": "MG.02",         "countryCode": "MG",         "countryName": "Madagascar",         "lat": -22.11278,         "lng": 46.92306,         "name": "Andringitra National Park",         "toponymName": "Andringitra National Park"}
{         "adminName1": "MG.01",         "countryCode": "MG",         "countryName": "Madagascar",         "lat": -15.30028,         "lng": 50.0525,         "name": "Masoala National Park",         "toponymName": "Masoala National Park"}
{         "adminName1": "Cortés",         "countryCode": "HN",         "countryName": "Honduras",         "lat": 15.518,         "lng": -88.193,         "name": "Cusuco National Park",         "toponymName": "Cusuco National Park"}
{         "adminName1": "Puntarenas",         "countryCode": "CR",         "countryName": "Costa Rica",         "lat": 9.73639,         "lng": -84.5956,         "name": "Carara National Park",         "toponymName": "Carara National Park"}
{         "adminName1": "",         "countryCode": "MA",         "countryName": "Morocco",         "lat": 30.08333,         "lng": -9.66667,         "name": "Souss-Massa National Park",         "toponymName": "Souss-Massa National Park"}
{         "adminName1": "Midlands",         "countryCode": "ZW",         "countryName": "Zimbabwe",         "lat": -17.75,         "lng": 28.16667,         "name": "Chizarira National Park",         "toponymName": "Chizarira National Park"}
{         "adminName1": "Mashonaland West",         "countryCode": "ZW",         "countryName": "Zimbabwe",         "lat": -16.83333,         "lng": 28.58333,         "name": "Matusadona National Park",         "toponymName": "Matusadona National Park"}
{         "adminName1": "Kajiado",         "countryCode": "KE",         "countryName": "Kenya",         "lat": -2.65306,         "lng": 37.26036,         "name": "Amboseli National Park",         "toponymName": "Amboseli National Park"}
{         "adminName1": "KwaZulu-Natal",         "countryCode": "ZA",         "countryName": "South Africa",         "lat": -28.69377,         "lng": 28.92772,         "name": "Royal Natal National Park",         "toponymName": "Royal Natal National Park"}
{         "adminName1": "Isiolo",         "countryCode": "KE",         "countryName": "Kenya",         "lat": 0.08171,         "lng": 38.20633,         "name": "Meru National Park",         "toponymName": "Meru National Park"}
{         "adminName1": "Punjab",         "countryCode": "PK",         "countryName": "Pakistan",         "lat": 29.00206,         "lng": 71.2819,         "name": "Sāhiwāla National Park",         "toponymName": "Sāhiwāla National Park"}
{         "adminName1": "Western Region",         "countryCode": "UG",         "countryName": "Uganda",         "lat": -0.25,         "lng": 30.18639,         "name": "Queen Elizabeth National Park",         "toponymName": "Queen Elizabeth National Park"}
{         "adminName1": "Wyoming",         "countryCode": "US",         "countryName": "United States",         "lat": 44.59644,         "lng": -110.5472,         "name": "Yellowstone National Park",         "toponymName": "Yellowstone National Park"}
{         "adminName1": "",         "countryCode": "ZM",         "countryName": "Zambia",         "lat": -10.64417,         "lng": 33.69231,         "name": "Nyika National Park",         "toponymName": "Nyika National Park"}
{         "adminName1": "Northern Region",         "countryCode": "UG",         "countryName": "Uganda",         "lat": 3.80919,         "lng": 33.63187,         "name": "Kidepo National Park",         "toponymName": "Kidepo National Park"}
{         "adminName1": "Eastern",         "countryCode": "ZM",         "countryName": "Zambia",         "lat": -12.869,         "lng": 32.44004,         "name": "Lukusuzi National Park",         "toponymName": "Lukusuzi National Park"}
{         "adminName1": "Eastern",         "countryCode": "ZM",         "countryName": "Zambia",         "lat": -12.53559,         "lng": 32.25505,         "name": "Luambe National Park",         "toponymName": "Luambe National Park"}
{         "adminName1": "Southern",         "countryCode": "ZM",         "countryName": "Zambia",         "lat": -15.89686,         "lng": 27.23801,         "name": "Lochinvar National Park",         "toponymName": "Lochinvar National Park"}
{         "adminName1": "Western",         "countryCode": "ZM",         "countryName": "Zambia",         "lat": -14.5,         "lng": 22.5,         "name": "Liuwa Plain National Park",         "toponymName": "Liuwa Plain National Park"}
{         "adminName1": "Central",         "countryCode": "ZM",         "countryName": "Zambia",         "lat": -12.565,         "lng": 30.17788,         "name": "Kasanka National Park",         "toponymName": "Kasanka National Park"}
{         "adminName1": "",         "countryCode": "ZM",         "countryName": "Zambia",         "lat": -14.5,         "lng": 26.16667,         "name": "Kafue National Park",         "toponymName": "Kafue National Park"}
{         "adminName1": "Northern",         "countryCode": "ZM",         "countryName": "Zambia",         "lat": -11.15221,         "lng": 30.63321,         "name": "Isangano National Park",         "toponymName": "Isangano National Park"}
{         "adminName1": "North-Western",         "countryCode": "ZM",         "countryName": "Zambia",         "lat": -12.75896,         "lng": 24.7671,         "name": "West Lunga National Park",         "toponymName": "West Lunga National Park"}
{         "adminName1": "",         "countryCode": "ZM",         "countryName": "Zambia",         "lat": -15.49246,         "lng": 27.40979,         "name": "Blue Lagoon National Park",         "toponymName": "Blue Lagoon National Park"}
{         "adminName1": "Northern Region",         "countryCode": "MW",         "countryName": "Malawi",         "lat": -10.55409,         "lng": 33.89701,         "name": "Nyika National Park",         "toponymName": "Nyika National Park"}
{         "adminName1": "",         "countryCode": "ZW",         "countryName": "Zimbabwe",         "lat": -20.18333,         "lng": 31.01667,         "name": "Kyle National Park",         "toponymName": "Kyle National Park"}
{         "adminName1": "Matabeleland North",         "countryCode": "ZW",         "countryName": "Zimbabwe",         "lat": -19.16667,         "lng": 26.5,         "name": "Hwange National Park",         "toponymName": "Hwange National Park"}
{         "adminName1": "Southern",         "countryCode": "LK",         "countryName": "Sri Lanka",         "lat": 6.5142,         "lng": 81.5423,         "name": "Yala National Park",         "toponymName": "Yala National Park"}
{         "adminName1": "Odisha",         "countryCode": "IN",         "countryName": "India",         "lat": 21.80387,         "lng": 86.272,         "name": "Simlipal National Park",         "toponymName": "Simlipal National Park"}
{         "adminName1": "",         "countryCode": "ZW",         "countryName": "Zimbabwe",         "lat": -19.08333,         "lng": 32.75,         "name": "Vumba National Park",         "toponymName": "Vumba National Park"}
{         "adminName1": "Matabeleland South",         "countryCode": "ZW",         "countryName": "Zimbabwe",         "lat": -20.55734,         "lng": 28.51259,         "name": "Rhodes Matopos National Park",         "toponymName": "Rhodes Matopos National Park"}
{         "adminName1": "",         "countryCode": "KE",         "countryName": "Kenya",         "lat": -0.10187,         "lng": 37.34005,         "name": "Mount Kenya National Park",         "toponymName": "Mount Kenya National Park"}
{         "adminName1": "KE.02",         "countryCode": "KE",         "countryName": "Kenya",         "lat": -2.74553,         "lng": 38.78174,         "name": "Tsavo National Park East",         "toponymName": "Tsavo National Park East"}
{         "adminName1": "Northern",         "countryCode": "ZM",         "countryName": "Zambia",         "lat": -8.73795,         "lng": 30.35763,         "name": "Sumbu National Park",         "toponymName": "Sumbu National Park"}
{         "adminName1": "Northern",         "countryCode": "ZM",         "countryName": "Zambia",         "lat": -8.68699,         "lng": 29.50362,         "name": "Mweru Wantipa National Park",         "toponymName": "Mweru Wantipa National Park"}
{         "adminName1": "Luapula",         "countryCode": "ZM",         "countryName": "Zambia",         "lat": -9.39639,         "lng": 29.20647,         "name": "Lusenga Plain National Park",         "toponymName": "Lusenga Plain National Park"}
{         "adminName1": "Kunene",         "countryCode": "NA",         "countryName": "Namibia",         "lat": -19,         "lng": 16,         "name": "Etosha National Park",         "toponymName": "Etosha National Park"}
{         "adminName1": "",         "countryCode": "MG",         "countryName": "Madagascar",         "lat": -18.6667,         "lng": 44.75,         "name": "Tsingy de Bemaraha National Park",         "toponymName": "Tsingy de Bemaraha National Park"}
{         "adminName1": "Western Australia",         "countryCode": "AU",         "countryName": "Australia",         "lat": -30.22127,         "lng": 115.0895,         "name": "Drovers Cave National Park",         "toponymName": "Drovers Cave National Park"}
{         "adminName1": "Dedoplistskaro",         "countryCode": "GE",         "countryName": "Georgia",         "lat": 41.19129,         "lng": 46.45829,         "name": "Vashlovani National Park",         "toponymName": "Vashlovani National Park"}
{         "adminName1": "Bonaire",         "countryCode": "BQ",         "countryName": "Bonaire",         "lat": 12.25807,         "lng": -68.37856,         "name": "Washington Slagbaai National Park",         "toponymName": "Washington Slagbaai National Park"}
{         "adminName1": "",         "countryCode": "GR",         "countryName": "Greece",         "lat": 39.89525,         "lng": 21.08311,         "name": "Pindus National Park",         "toponymName": "Pindus National Park"}
{         "adminName1": "",         "countryCode": "MG",         "countryName": "Madagascar",         "lat": -17.61237,         "lng": 48.77947,         "name": "Zahamena National Park",         "toponymName": "Zahamena National Park"}
{         "adminName1": "Alajuela",         "countryCode": "CR",         "countryName": "Costa Rica", "lat": 10.83,         "lng": -85.32388,         "name": "Guanacaste National Park",      "toponymName": "Guanacaste National Park"}
{         "adminName1": "",                 "countryCode":"",            "countryName":"",            "lat": 41.6,          "lng": 6.25,              "name": "Saadani National Park",         "toponymName": "Saadani National Park"}
{         "adminName1": "Bauchi",         "countryCode": "NG",         "countryName": "Nigeria",         "lat": 9.75443,         "lng": 10.51032,         "name": "Yankari National Park",         "toponymName": "Yankari National Park"}
{         "adminName1": "",         "countryCode": "LT",         "countryName": "Lithuania",         "lat": 56.044,         "lng": 21.889,         "name": "Zemaitija National Park",         "toponymName": "Zemaitija National Park"}
{         "adminName1": "",         "countryCode": "GE",         "countryName": "Georgia",         "lat": 41.69689,         "lng": 41.88417,         "name": "Mtirala National Park",         "toponymName": "Mtirala National Park"}
{         "adminName1": "",         "countryCode": "IE",         "countryName": "Ireland",         "lat": 51.99333,         "lng": -9.55722,         "name": "Killarney National Park",         "toponymName": "Killarney National Park"}
{         "adminName1": "",         "countryCode": "AU",         "countryName": "Australia",         "lat": -20.74111,         "lng": 149.47361,         "name": "South Cumberland Islands National Park",         "toponymName": "South Cumberland Islands National Park"}
{         "adminName1": "Lusaka",         "countryCode": "ZM",         "countryName": "Zambia",         "lat": -15.2833,         "lng": 29.59991,         "name": "Lower Zambezi National Park",         "toponymName": "Lower Zambezi National Park"}
{         "adminName1": "North-West",         "countryCode": "BW",         "countryName": "Botswana",         "lat": -18.66667,         "lng": 24.5,         "name": "Chobe National Park",         "toponymName": "Chobe National Park"}
{         "adminName1": "Haut-Ogooué",         "countryCode": "GA",         "countryName": "Gabon",         "lat": -2.1576,         "lng": 14.00725,         "name": "Bateke Plateau National Park",         "toponymName": "Bateke Plateau National Park"}
{         "adminName1": "",         "countryCode": "NZ",         "countryName": "New Zealand",         "lat": -39.25,         "lng": 175.58333,         "name": "Tongariro National Park",         "toponymName": "Tongariro National Park"}
{         "adminName1": "",         "countryCode": "SB",         "countryName": "Solomon Islands",         "lat": -9.49267,         "lng": 159.9644,         "name": "Queen Elizabeth National Park",         "toponymName": "Queen Elizabeth National Park"}
{         "adminName1": "South Australia",         "countryCode": "AU",         "countryName": "Australia",         "lat": -35.59051,         "lng": 138.32394,         "name": "Waitpinga National Park",         "toponymName": "Waitpinga National Park"}
{         "adminName1": "South Australia",         "countryCode": "AU",         "countryName": "Australia",         "lat": -35.60092,         "lng": 138.32971,         "name": "Eric Bonython National Park",         "toponymName": "Eric Bonython National Park"}
{         "adminName1": "Western Australia",         "countryCode": "AU",         "countryName": "Australia",         "lat": -34.63603,         "lng": 116.4121,         "name": "Shannon National Park",         "toponymName": "Shannon National Park"}
{         "adminName1": "New South Wales",         "countryCode": "AU",         "countryName": "Australia",         "lat": -34.1318,         "lng": 151.05119,         "name": "Royal National Park",         "toponymName": "Royal National Park"}
{         "adminName1": "Western",         "countryCode": "ZM",         "countryName": "Zambia",         "lat": -17.33333,         "lng": 23.5,         "name": "Sioma Ngweze National Park",         "toponymName": "Sioma Ngweze National Park"}
{         "adminName1": "Montagnes",         "countryCode": "CI",         "countryName": "Ivory Coast",         "lat": 5.78639,         "lng": -7.09965,         "name": "Taï National Park",         "toponymName": "Parc National de Taï"}
{         "adminName1": "",         "countryCode": "NZ",         "countryName": "New Zealand",         "lat": -42.95,         "lng": 171.58333,         "name": "Arthur's Pass National Park",         "toponymName": "Arthur's Pass National Park"}
{         "adminName1": "New South Wales",         "countryCode": "AU",         "countryName": "Australia",         "lat": -31.2318,         "lng": 149.0179,         "name": "Warrumbungle National Park",         "toponymName": "Warrumbungle National Park"}
{         "adminName1": "Tasmania",         "countryCode": "AU",         "countryName": "Australia",         "lat": -41.89,         "lng": 146.24001,         "name": "Walls of Jerusalem National Park",         "toponymName": "Walls of Jerusalem National Park"}
{         "adminName1": "Queensland",         "countryCode": "AU",         "countryName": "Australia",         "lat": -28.25618,         "lng": 153.13358,         "name": "Lamington National Park",         "toponymName": "Lamington National Park"}
{         "adminName1": "Tasmania",         "countryCode": "AU",         "countryName": "Australia",         "lat": -42.08,         "lng": 148.28,         "name": "Freycinet National Park",         "toponymName": "Freycinet National Park"}
{         "adminName1": "Tasmania",         "countryCode": "AU",         "countryName": "Australia",         "lat": -42.26667,         "lng": 145.83333,         "name": "Frenchmans Cap National Park",         "toponymName": "Frenchmans Cap National Park"}
{         "adminName1": "Queensland",         "countryCode": "AU",         "countryName": "Australia",         "lat": -26.85833,         "lng": 151.60611,         "name": "Bunya Mountains National Park",         "toponymName": "Bunya Mountains National Park"}
{         "adminName1": "Tasmania",         "countryCode": "AU",         "countryName": "Australia",         "lat": -41.56,         "lng": 147.67,         "name": "Ben Lomond National Park",         "toponymName": "Ben Lomond National Park"}
{         "adminName1": "Tasmania",         "countryCode": "AU",         "countryName": "Australia",         "lat": -42.67915,         "lng": 146.71726,         "name": "Mount Field National Park",         "toponymName": "Mount Field National Park"}
{         "adminName1": "Victoria",         "countryCode": "AU",         "countryName": "Australia",         "lat": -36.74681,         "lng": 146.77708,         "name": "Mount Buffalo National Park",         "toponymName": "Mount Buffalo National Park"}
{         "adminName1": "Tasmania",         "countryCode": "AU",         "countryName": "Australia",         "lat": -42.65,         "lng": 148.08,         "name": "Maria Island National Park",         "toponymName": "Maria Island National Park"}
{         "adminName1": "",         "countryCode": "GH",         "countryName": "Ghana",         "lat": 9.48866,         "lng": -1.95574,         "name": "Mole National Park",         "toponymName": "Mole National Park"}
{         "adminName1": "",         "countryCode": "NZ",         "countryName": "New Zealand",         "lat": -40.91222,         "lng": 172.97012,         "name": "Abel Tasman National Park",         "toponymName": "Abel Tasman National Park"}
{         "adminName1": "Western Australia",         "countryCode": "AU",         "countryName": "Australia",         "lat": -34.49409,         "lng": 115.9682,         "name": "Warren National Park",         "toponymName": "Warren National Park"}
{         "adminName1": "Western Australia",         "countryCode": "AU",         "countryName": "Australia",         "lat": -34.51159,         "lng": 115.999,         "name": "Brockman National Park",         "toponymName": "Brockman National Park"}
{         "adminName1": "Western Australia",         "countryCode": "AU",         "countryName": "Australia",         "lat": -34.40639,         "lng": 115.8767,         "name": "Beedelup National Park",         "toponymName": "Beedelup National Park"}
{         "adminName1": "Northern Cape",         "countryCode": "ZA",         "countryName": "South Africa",         "lat": -28.58473,         "lng": 20.34516,         "name": "Augrabies Falls National Park",         "toponymName": "Augrabies Falls National Park"}
{         "adminName1": "Orange Free State",         "countryCode": "ZA",         "countryName": "South Africa",         "lat": -28.52078,         "lng": 28.60261,         "name": "Golden Gate Highlands National Park",         "toponymName": "Golden Gate Highlands National Park"}
{         "adminName1": "Uva",         "countryCode": "LK",         "countryName": "Sri Lanka",         "lat": 7.16667,         "lng": 81.41667,         "name": "Gal Oya National Park",         "toponymName": "Gal Oya National Park"}
{         "adminName1": "Wales",         "countryCode": "GB",         "countryName": "United Kingdom",         "lat": 51.88333,         "lng": -3.4,         "name": "Brecon Beacons National Park",         "toponymName": "Brecon Beacons National Park"}
{         "adminName1": "Western Australia",         "countryCode": "AU",         "countryName": "Australia",         "lat": -35.09435,         "lng": 117.8682,         "name": "Torndirrup National Park",         "toponymName": "Torndirrup National Park"}
{         "adminName1": "South Australia",         "countryCode": "AU",         "countryName": "Australia",         "lat": -34.86678,         "lng": 135.93452,         "name": "Lincoln National Park",         "toponymName": "Lincoln National Park"}
{         "adminName1": "Manyara",         "countryCode": "TZ",         "countryName": "Tanzania",         "lat": -4,         "lng": 36,         "name": "Tarangire National Park",         "toponymName": "Tarangire National Park"}
{         "adminName1": "Iringa",         "countryCode": "TZ",         "countryName": "Tanzania",         "lat": -7.5,         "lng": 35,         "name": "Ruaha National Park",         "toponymName": "Ruaha National Park"}
{         "adminName1": "Morogoro",         "countryCode": "TZ",         "countryName": "Tanzania",         "lat": -7.26035,         "lng": 37.05315,         "name": "Mikumi National Park",         "toponymName": "Mikumi National Park"}
{         "adminName1": "Manyara",         "countryCode": "TZ",         "countryName": "Tanzania",         "lat": -3.5,         "lng": 35.83333,         "name": "Lake Manyara National Park",         "toponymName": "Lake Manyara National Park"}
{         "adminName1": "",         "countryCode": "ZW",         "countryName": "Zimbabwe",         "lat": -17.91667,         "lng": 25.66667,         "name": "Victoria Falls National Park",         "toponymName": "Victoria Falls National Park"}
{         "adminName1": "Sabah",         "countryCode": "MY",         "countryName": "Malaysia",         "lat": 5.58333,         "lng": 116.08333,         "name": "Crocker Range National Park",         "toponymName": "Crocker Range National Park"}
{         "adminName1": "Nakuru",         "countryCode": "KE",         "countryName": "Kenya",         "lat": -0.33947,         "lng": 36.09982,         "name": "Lake Nakuru National Park",         "toponymName": "Lake Nakuru National Park"}
{         "adminName1": "Kigoma",         "countryCode": "TZ",         "countryName": "Tanzania",         "lat": -4.7,         "lng": 29.61667,         "name": "Gombe Stream National Park",         "toponymName": "Gombe Stream National Park"}
{         "adminName1": "Arusha",         "countryCode": "TZ",         "countryName": "Tanzania",         "lat": -3.25,         "lng": 36.75,         "name": "Arusha National Park",         "toponymName": "Arusha National Park"}
{         "adminName1": "Western Region",         "countryCode": "UG",         "countryName": "Uganda",         "lat": 2.24573,         "lng": 31.90699,         "name": "Murchison Falls National Park",         "toponymName": "Murchison Falls National Park"}
{         "adminName1": "Western Australia",         "countryCode": "AU",         "countryName": "Australia",         "lat": -22.25056,         "lng": 117.97556,         "name": "Karijini National Park",         "toponymName": "Karijini National Park"}
{         "adminName1": "MG.04",         "countryCode": "MG",         "countryName": "Madagascar",         "lat": -18.83473,         "lng": 48.45881,         "name": "Mantadia National Park",         "toponymName": "Mantadia National Park"}
{         "adminName1": "New South Wales",         "countryCode": "AU",         "countryName": "Australia",         "lat": -29.3318,         "lng": 153.3346,         "name": "Bundjalung National Park",         "toponymName": "Bundjalung National Park"}
{         "adminName1": "New South Wales",         "countryCode": "AU",         "countryName": "Australia",         "lat": -35.4985,         "lng": 150.0012,         "name": "Budawang National Park",         "toponymName": "Budawang National Park"}
{         "adminName1": "New South Wales",         "countryCode": "AU",         "countryName": "Australia",         "lat": -34.6485,         "lng": 150.7012,         "name": "Budderoo National Park",         "toponymName": "Budderoo National Park"}
{         "adminName1": "New South Wales",         "countryCode": "AU",         "countryName": "Australia",         "lat": -33.4985,         "lng": 151.41789,         "name": "Bouddi National Park",         "toponymName": "Bouddi National Park"}
{         "adminName1": "New South Wales",         "countryCode": "AU",         "countryName": "Australia",         "lat": -29.0652,         "lng": 153.41789,         "name": "Broadwater National Park",         "toponymName": "Broadwater National Park"}
{         "adminName1": "Queensland",         "countryCode": "AU",         "countryName": "Australia",         "lat": -25.72009,         "lng": 151.05302,         "name": "Auburn River National Park",         "toponymName": "Auburn River National Park"}
{         "adminName1": "Queensland",         "countryCode": "AU",         "countryName": "Australia",         "lat": -27.52171,         "lng": 153.47736,         "name": "Blue Lake National Park",         "toponymName": "Blue Lake National Park"}
{         "adminName1": "Queensland",         "countryCode": "AU",         "countryName": "Australia",         "lat": -28.09396,         "lng": 153.4583,         "name": "Burleigh Head National Park",         "toponymName": "Burleigh Head National Park"}
{         "adminName1": "Queensland",         "countryCode": "AU",         "countryName": "Australia",         "lat": -27.99482,         "lng": 149.32669,         "name": "Alton National Park",         "toponymName": "Alton National Park"}
{         "adminName1": "Queensland",         "countryCode": "AU",         "countryName": "Australia",         "lat": -17.73763,         "lng": 146.15942,         "name": "Barnard Island Group National Park",         "toponymName": "Barnard Island Group National Park"}
{         "adminName1": "Queensland",         "countryCode": "AU",         "countryName": "Australia",         "lat": -28.2987,         "lng": 150.51889,         "name": "Bendidee National Park",         "toponymName": "Bendidee National Park"}
{         "adminName1": "Queensland",         "countryCode": "AU",         "countryName": "Australia",         "lat": -21.46011,         "lng": 146.71611,         "name": "Blackwood National Park",         "toponymName": "Blackwood National Park"}
{         "adminName1": "Queensland",         "countryCode": "AU",         "countryName": "Australia",         "lat": -18.14263,         "lng": 146.28444,         "name": "Brook Islands National Park",         "toponymName": "Brook Islands National Park"}
{         "adminName1": "Queensland",         "countryCode": "AU",         "countryName": "Australia",         "lat": -17.60607,         "lng": 143.89069,         "name": "Bulleringa National Park",         "toponymName": "Bulleringa National Park"}
{         "adminName1": "Queensland",         "countryCode": "AU",         "countryName": "Australia",         "lat": -22.8597,         "lng": 150.76211,         "name": "Byfield National Park",         "toponymName": "Byfield National Park"}
{         "adminName1": "Queensland",         "countryCode": "AU",         "countryName": "Australia",         "lat": -24.21238,         "lng": 140.56787,         "name": "Astrebla Downs National Park",         "toponymName": "Astrebla Downs National Park"}
{         "adminName1": "New South Wales",         "countryCode": "AU",         "countryName": "Australia",         "lat": -35.2388,         "lng": 148.80119,         "name": "Brindabella National Park",         "toponymName": "Brindabella National Park"}
{         "adminName1": "South Australia",         "countryCode": "AU",         "countryName": "Australia",         "lat": -35.01249,         "lng": 138.64849,         "name": "Belair National Park",         "toponymName": "Belair National Park"}
{         "adminName1": "Victoria",         "countryCode": "AU",         "countryName": "Australia",         "lat": -37.55819,         "lng": 149.35959,         "name": "Alfred National Park",         "toponymName": "Alfred National Park"}
{         "adminName1": "Victoria",         "countryCode": "AU",         "countryName": "Australia",         "lat": -37.82431,         "lng": 144.27431,         "name": "Brisbane Ranges National Park",         "toponymName": "Brisbane Ranges National Park"}
{         "adminName1": "Victoria",         "countryCode": "AU",         "countryName": "Australia",         "lat": -36.0957,         "lng": 147.72319,         "name": "Burrowa-Pine Mountain National Park",         "toponymName": "Burrowa-Pine Mountain National Park"}
{         "adminName1": "Western Australia",         "countryCode": "AU",         "countryName": "Australia",         "lat": -30.05099,         "lng": 115.549,         "name": "Alexander Morrison National Park",         "toponymName": "Alexander Morrison National Park"}
{         "adminName1": "Western Australia",         "countryCode": "AU",         "countryName": "Australia",         "lat": -31.57738,         "lng": 116.2637,         "name": "Avon Valley National Park",         "toponymName": "Avon Valley National Park"}
{         "adminName1": "Western Australia",         "countryCode": "AU",         "countryName": "Australia",         "lat": -31.94389,         "lng": 116.1425,         "name": "Beelu National Park",         "toponymName": "Beelu National Park"}
{         "adminName1": "Western Australia",         "countryCode": "AU",         "countryName": "Australia",         "lat": -31.21539,         "lng": 120.1904,         "name": "Boorabbin National Park",         "toponymName": "Boorabbin National Park"}
{         "adminName1": "New South Wales",         "countryCode": "AU",         "countryName": "Australia",         "lat": -33.3652,         "lng": 151.0846,         "name": "Dharug National Park",         "toponymName": "Dharug National Park"}
{         "adminName1": "KE.08",         "countryCode": "KE",         "countryName": "Kenya",         "lat": -0.91583,         "lng": 36.31333,         "name": "Hell's Gate National Park",         "toponymName": "Hell's Gate National Park"}
{         "adminName1": "Uva",         "countryCode": "LK",         "countryName": "Sri Lanka",         "lat": 6.474,         "lng": 80.8987,         "name": "Udawalawe National Park",         "toponymName": "Udawalawe National Park"}
{         "adminName1": "Queensland",         "countryCode": "AU",         "countryName": "Australia",         "lat": -28.00874,         "lng": 144.19398,         "name": "Lake Bindegolly National Park",         "toponymName": "Lake Bindegolly National Park"}
{         "adminName1": "Queensland",         "countryCode": "AU",         "countryName": "Australia",         "lat": -17.78124,         "lng": 146.07248,         "name": "Maria Creek National Park",         "toponymName": "Maria Creek National Park"}
{         "adminName1": "Queensland",         "countryCode": "AU",         "countryName": "Australia",         "lat": -22.23011,         "lng": 147.29224,         "name": "Mazeppa National Park",         "toponymName": "Mazeppa National Park"}
{         "adminName1": "Queensland",         "countryCode": "AU",         "countryName": "Australia",         "lat": -16.61415,         "lng": 145.97603,         "name": "Michaelmas And Upolu Cays National Park",         "toponymName": "Michaelmas And Upolu Cays National Park"}
{         "adminName1": "Queensland",         "countryCode": "AU",         "countryName": "Australia",         "lat": -15.46793,         "lng": 142.08641,         "name": "Mitchell-Alice Rivers National Park",         "toponymName": "Mitchell-Alice Rivers National Park"}
{         "adminName1": "Queensland",         "countryCode": "AU",         "countryName": "Australia",         "lat": -28.02257,         "lng": 152.54359,         "name": "Moogerah Peaks National Park",         "toponymName": "Moogerah Peaks National Park"}
{         "adminName1": "Queensland",         "countryCode": "AU",         "countryName": "Australia",         "lat": -21.4204,         "lng": 144.96031,         "name": "Moorrinya National Park",         "toponymName": "Moorrinya National Park"}
{         "adminName1": "Queensland",         "countryCode": "AU",         "countryName": "Australia",         "lat": -17.54679,         "lng": 146.08331,         "name": "Moresby Range National Park",         "toponymName": "Moresby Range National Park"}
{         "adminName1": "Queensland",         "countryCode": "AU",         "countryName": "Australia",         "lat": -23.32259,         "lng": 150.58247,         "name": "Mount Archer National Park",         "toponymName": "Mount Archer National Park"}
{         "adminName1": "Queensland",         "countryCode": "AU",         "countryName": "Australia",         "lat": -28.30285,         "lng": 152.93745,         "name": "Mount Chinghee National Park",         "toponymName": "Mount Chinghee National Park"}
{         "adminName1": "Queensland",         "countryCode": "AU",         "countryName": "Australia",         "lat": -24.41481,         "lng": 151.58829,         "name": "Mount Colosseum National Park",         "toponymName": "Mount Colosseum National Park"}
{         "adminName1": "Queensland",         "countryCode": "AU",         "countryName": "Australia",         "lat": -26.56202,         "lng": 153.08438,         "name": "Mount Coolum National Park",         "toponymName": "Mount Coolum National Park"}
{         "adminName1": "Queensland",         "countryCode": "AU",         "countryName": "Australia",         "lat": -21.07038,         "lng": 148.83052,         "name": "Mount Martin National Park",         "toponymName": "Mount Martin National Park"}
{         "adminName1": "Queensland",         "countryCode": "AU",         "countryName": "Australia",         "lat": -20.97761,         "lng": 148.82108,         "name": "Mount Ossa National Park",         "toponymName": "Mount Ossa National Park"}
{         "adminName1": "Queensland",         "countryCode": "AU",         "countryName": "Australia",         "lat": -20.47371,         "lng": 149.08414,         "name": "Lindeman Islands National Park",         "toponymName": "Lindeman Islands National Park"}
{         "adminName1": "Queensland",         "countryCode": "AU",         "countryName": "Australia",         "lat": -19.1354,         "lng": 146.83859,         "name": "Magnetic Island National Park",         "toponymName": "Magnetic Island National Park"}
{         "adminName1": "Queensland",         "countryCode": "AU",         "countryName": "Australia",         "lat": -26.62896,         "lng": 152.83995,         "name": "Mapleton Falls National Park",         "toponymName": "Mapleton Falls National Park"}
{         "adminName1": "Queensland",         "countryCode": "AU",         "countryName": "Australia",         "lat": -17.63152,         "lng": 145.46695,         "name": "Millstream Falls National Park",         "toponymName": "Millstream Falls National Park"}
{         "adminName1": "Queensland",         "countryCode": "AU",         "countryName": "Australia",         "lat": -20.19594,         "lng": 147.9211,         "name": "Mount Aberdeen National Park",         "toponymName": "Mount Aberdeen National Park"}
{         "adminName1": "Queensland",         "countryCode": "AU",         "countryName": "Australia",         "lat": -17.42569,         "lng": 145.48612,         "name": "Mount Hypipamee National Park",         "toponymName": "Mount Hypipamee National Park"}
{         "adminName1": "Queensland",         "countryCode": "AU",         "countryName": "Australia",         "lat": -15.07208,         "lng": 145.12555,         "name": "Mount Webb National Park",         "toponymName": "Mount Webb National Park"}
{         "adminName1": "Queensland",         "countryCode": "AU",         "countryName": "Australia",         "lat": -26.03873,         "lng": 145.04729,         "name": "Mariala National Park",         "toponymName": "Mariala National Park"}
{         "adminName1": "Queensland",         "countryCode": "AU",         "countryName": "Australia",         "lat": -26.72257,         "lng": 153.09494,         "name": "Mooloolah River National Park",         "toponymName": "Mooloolah River National Park"}
{         "adminName1": "Queensland",         "countryCode": "AU",         "countryName": "Australia",         "lat": -16.58222,         "lng": 145.44389,         "name": "Mowbray National Park",         "toponymName": "Mowbray National Park"}
{         "adminName1": "Queensland",         "countryCode": "AU",         "countryName": "Australia",         "lat": -25.61222,         "lng": 152.05945,         "name": "Mount Walsh National Park",         "toponymName": "Mount Walsh National Park"}
{         "adminName1": "Queensland",         "countryCode": "AU",         "countryName": "Australia",         "lat": -23.1575,         "lng": 150.48221,         "name": "Mount Etna Caves National Park",         "toponymName": "Mount Etna Caves National Park"}
{         "adminName1": "Queensland",         "countryCode": "AU",         "countryName": "Australia",         "lat": -28.26417,         "lng": 152.635,         "name": "Mount Barney National Park",         "toponymName": "Mount Barney National Park"}
{         "adminName1": "South Australia",         "countryCode": "AU",         "countryName": "Australia",         "lat": -30.99316,         "lng": 137.85906,         "name": "Lake Torrens National Park",         "toponymName": "Lake Torrens National Park"}
{         "adminName1": "South Australia",         "countryCode": "AU",         "countryName": "Australia",         "lat": -32.79369,         "lng": 138.06051,         "name": "Mount Remarkable National Park",         "toponymName": "Mount Remarkable National Park"}
{         "adminName1": "Tasmania",         "countryCode": "AU",         "countryName": "Australia",         "lat": -40.93777,         "lng": 148.25361,         "name": "Mount William National Park",         "toponymName": "Mount William National Park"}
{         "adminName1": "Victoria",         "countryCode": "AU",         "countryName": "Australia",         "lat": -37.5757,         "lng": 148.95348,         "name": "Lind National Park",         "toponymName": "Lind National Park"}
{         "adminName1": "Victoria",         "countryCode": "AU",         "countryName": "Australia",         "lat": -38.01569,         "lng": 141.34876,         "name": "Lower Glenelg National Park",         "toponymName": "Lower Glenelg National Park"}
{         "adminName1": "Victoria",         "countryCode": "AU",         "countryName": "Australia",         "lat": -37.64791,         "lng": 147.35265,         "name": "Mitchell River National Park",         "toponymName": "Mitchell River National Park"}
{         "adminName1": "Victoria",         "countryCode": "AU",         "countryName": "Australia",         "lat": -38.47681,         "lng": 144.8907,         "name": "Mornington Peninsula National Park",         "toponymName": "Mornington Peninsula National Park"}
{         "adminName1": "Victoria",         "countryCode": "AU",         "countryName": "Australia",         "lat": -38.08681,         "lng": 141.90208,         "name": "Mount Eccles National Park",         "toponymName": "Mount Eccles National Park"}
{         "adminName1": "Western Australia",         "countryCode": "AU",         "countryName": "Australia",         "lat": -31.05849,         "lng": 115.6704,         "name": "Moore River National Park",         "toponymName": "Moore River National Park"}
{         "adminName1": "New South Wales",         "countryCode": "AU",         "countryName": "Australia",         "lat": -33.3985,         "lng": 148.5679,         "name": "Nangar National Park",         "toponymName": "Nangar National Park"}
{         "adminName1": "New South Wales",         "countryCode": "AU",         "countryName": "Australia",         "lat": -33.3818,         "lng": 151.1929,         "name": "Popran National Park",         "toponymName": "Popran National Park"}
{         "adminName1": "New South Wales",         "countryCode": "AU",         "countryName": "Australia",         "lat": -34.7152,         "lng": 145.2679,         "name": "Oolambeyan National Park",         "toponymName": "Oolambeyan National Park"}
{         "adminName1": "Queensland",         "countryCode": "AU",         "countryName": "Australia",         "lat": -20.37194,         "lng": 144.44917,         "name": "Porcupine Gorge National Park",         "toponymName": "Porcupine Gorge National Park"}
{         "adminName1": "Queensland",         "countryCode": "AU",         "countryName": "Australia",         "lat": -22.929,         "lng": 146.92474,         "name": "Narrien Range National Park",         "toponymName": "Narrien Range National Park"}
{         "adminName1": "Queensland",         "countryCode": "AU",         "countryName": "Australia",         "lat": -28.18756,         "lng": 153.42413,         "name": "Nicoll Scrub National Park",         "toponymName": "Nicoll Scrub National Park"}
{         "adminName1": "Queensland",         "countryCode": "AU",         "countryName": "Australia",         "lat": -24.96731,         "lng": 149.33388,         "name": "Palmgrove National Park",         "toponymName": "Palmgrove National Park"}
{         "adminName1": "Queensland",         "countryCode": "AU",         "countryName": "Australia",         "lat": -21.02649,         "lng": 148.96913,         "name": "Pioneer Peaks National Park",         "toponymName": "Pioneer Peaks National Park"}
{         "adminName1": "Queensland",         "countryCode": "AU",         "countryName": "Australia",         "lat": -12.24406,         "lng": 143.23254,         "name": "Piper Islands National Park",         "toponymName": "Piper Islands National Park"}
{         "adminName1": "Queensland",         "countryCode": "AU",         "countryName": "Australia",         "lat": -25.60285,         "lng": 152.84299,         "name": "Poona National Park",         "toponymName": "Poona National Park"}
{         "adminName1": "Queensland",         "countryCode": "AU",         "countryName": "Australia",         "lat": -25.33425,         "lng": 150.10666,         "name": "Precipice National Park",         "toponymName": "Precipice National Park"}
{         "adminName1": "Queensland",         "countryCode": "AU",         "countryName": "Australia",         "lat": -12.40433,         "lng": 143.48917,         "name": "Quoin Island National Park",         "toponymName": "Quoin Island National Park"}
{         "adminName1": "Queensland",         "countryCode": "AU",         "countryName": "Australia",         "lat": -21.04621,         "lng": 149.1008,         "name": "Reliance Creek National Park",         "toponymName": "Reliance Creek National Park"}
{         "adminName1": "Queensland",         "countryCode": "AU",         "countryName": "Australia",         "lat": -12.61877,         "lng": 143.44251,         "name": "Restoration Island National Park",         "toponymName": "Restoration Island National Park"}
{         "adminName1": "Queensland",         "countryCode": "AU",         "countryName": "Australia",         "lat": -18.63693,         "lng": 146.49985,         "name": "Orpheus Island National Park",         "toponymName": "Orpheus Island National Park"}
{         "adminName1": "Queensland",         "countryCode": "AU",         "countryName": "Australia",         "lat": -17.56874,         "lng": 145.89916,         "name": "Palmerston Rocks National Park",         "toponymName": "Palmerston Rocks National Park"}
{         "adminName1": "Queensland",         "countryCode": "AU",         "countryName": "Australia",         "lat": -21.17343,         "lng": 149.26553,         "name": "Round Top Island National Park",         "toponymName": "Round Top Island National Park"}
{         "adminName1": "Queensland",         "countryCode": "AU",         "countryName": "Australia",         "lat": -26.44917,         "lng": 153.08888,         "name": "Noosa National Park",         "toponymName": "Noosa National Park"}
{         "adminName1": "Queensland",         "countryCode": "AU",         "countryName": "Australia",         "lat": -27.36444,         "lng": 152.185,         "name": "Ravensbourne National Park",         "toponymName": "Ravensbourne National Park"}
{         "adminName1": "South Australia",         "countryCode": "AU",         "countryName": "Australia",         "lat": -31.4562,         "lng": 129.89905,         "name": "Nullarbor National Park",         "toponymName": "Nullarbor National Park"}
{         "adminName1": "South Australia",         "countryCode": "AU",         "countryName": "Australia",         "lat": -35.15802,         "lng": 138.56062,         "name": "Onkaparinga River National Park",         "toponymName": "Onkaparinga River National Park"}
{         "adminName1": "Tasmania",         "countryCode": "AU",         "countryName": "Australia",         "lat": -40.87,         "lng": 145.48,         "name": "Rocky Cape National Park",         "toponymName": "Rocky Cape National Park"}
{         "adminName1": "Victoria",         "countryCode": "AU",         "countryName": "Australia",         "lat": -37.66347,         "lng": 144.77902,         "name": "Organ Pipes National Park",         "toponymName": "Organ Pipes National Park"}
{         "adminName1": "Victoria",         "countryCode": "AU",         "countryName": "Australia",         "lat": -38.64144,         "lng": 143.06813,         "name": "Port Campbell National Park",         "toponymName": "Port Campbell National Park"}
{         "adminName1": "Western Australia",         "countryCode": "AU",         "countryName": "Australia",         "lat": -31.6635,         "lng": 115.7356,         "name": "Neerabup National Park",         "toponymName": "Neerabup National Park"}
{         "adminName1": "Western Australia",         "countryCode": "AU",         "countryName": "Australia",         "lat": -32.88206,         "lng": 121.1515,         "name": "Peak Charles National Park",         "toponymName": "Peak Charles National Park"}
{         "adminName1": "New South Wales",         "countryCode": "AU",         "countryName": "Australia",         "lat": -32.7402,         "lng": 152.1512,         "name": "Tomaree National Park",         "toponymName": "Tomaree National Park"}
{         "adminName1": "Queensland",         "countryCode": "AU",         "countryName": "Australia",         "lat": -25.1474,         "lng": 138.23987,         "name": "Simpson Desert National Park",         "toponymName": "Simpson Desert National Park"}
{         "adminName1": "Queensland",         "countryCode": "AU",         "countryName": "Australia",         "lat": -21.75092,         "lng": 150.33162,         "name": "South Island National Park",         "toponymName": "South Island National Park"}
{         "adminName1": "Queensland",         "countryCode": "AU",         "countryName": "Australia",         "lat": -14.72042,         "lng": 145.20276,         "name": "Turtle Group National Park",         "toponymName": "Turtle Group National Park"}
{         "adminName1": "Queensland",         "countryCode": "AU",         "countryName": "Australia",         "lat": -28.04673,         "lng": 153.12302,         "name": "Sarabah National Park",         "toponymName": "Sarabah National Park"}
{         "adminName1": "Queensland",         "countryCode": "AU",         "countryName": "Australia",         "lat": -11.91794,         "lng": 143.47417,         "name": "Sir Charles Hardy Group National Park",         "toponymName": "Sir Charles Hardy Group National Park"}
{         "adminName1": "Queensland",         "countryCode": "AU",         "countryName": "Australia",         "lat": -28.20868,         "lng": 153.29135,         "name": "Springbrook National Park",         "toponymName": "Springbrook National Park"}
{         "adminName1": "Queensland",         "countryCode": "AU",         "countryName": "Australia",         "lat": -27.39174,         "lng": 153.23273,         "name": "St Helena Island National Park",         "toponymName": "St Helena Island National Park"}
{         "adminName1": "Queensland",         "countryCode": "AU",         "countryName": "Australia",         "lat": -28.87313,         "lng": 151.63193,         "name": "Sundown National Park",         "toponymName": "Sundown National Park"}
{         "adminName1": "Queensland",         "countryCode": "AU",         "countryName": "Australia",         "lat": -27.89229,         "lng": 153.19051,         "name": "Tamborine National Park",         "toponymName": "Tamborine National Park"}
{         "adminName1": "Queensland",         "countryCode": "AU",         "countryName": "Australia",         "lat": -23.53176,         "lng": 149.22247,         "name": "Taunton National Park",         "toponymName": "Taunton National Park"}
{         "adminName1": "Queensland",         "countryCode": "AU",         "countryName": "Australia",         "lat": -26.93452,         "lng": 151.87859,         "name": "The Palms National Park",         "toponymName": "The Palms National Park"}
{         "adminName1": "Queensland",         "countryCode": "AU",         "countryName": "Australia",         "lat": -15.11347,         "lng": 145.42776,         "name": "Three Islands National Park",         "toponymName": "Three Islands National Park"}
{         "adminName1": "Queensland",         "countryCode": "AU",         "countryName": "Australia",         "lat": -17.39846,         "lng": 145.70082,         "name": "Topaz Road National Park",         "toponymName": "Topaz Road National Park"}
{         "adminName1": "Queensland",         "countryCode": "AU",         "countryName": "Australia",         "lat": -26.47983,         "lng": 147.06726,         "name": "Tregole National Park",         "toponymName": "Tregole National Park"}
{         "adminName1": "Queensland",         "countryCode": "AU",         "countryName": "Australia",         "lat": -18.28458,         "lng": 144.63086,         "name": "Undara Volcanic National Park",         "toponymName": "Undara Volcanic National Park"}
{         "adminName1": "Queensland",         "countryCode": "AU",         "countryName": "Australia",         "lat": -23.98314,         "lng": 151.41162,         "name": "Wild Cattle Island National Park",         "toponymName": "Wild Cattle Island National Park"}
{         "adminName1": "Queensland",         "countryCode": "AU",         "countryName": "Australia",         "lat": -17.28763,         "lng": 145.57167,         "name": "Yungaburra National Park",         "toponymName": "Yungaburra National Park"}
{         "adminName1": "Queensland",         "countryCode": "AU",         "countryName": "Australia",         "lat": -27.79951,         "lng": 153.39717,         "name": "Southern Moreton Bay Islands National Park",         "toponymName": "Southern Moreton Bay Islands National Park"}
{         "adminName1": "Queensland",         "countryCode": "AU",         "countryName": "Australia",         "lat": -27.63007,         "lng": 153.19968,         "name": "Venman Bushland National Park",         "toponymName": "Venman Bushland National Park"}
{         "adminName1": "Queensland",         "countryCode": "AU",         "countryName": "Australia",         "lat": -26.83556,         "lng": 151.84277,         "name": "Tarong National Park",         "toponymName": "Tarong National Park"}
{         "adminName1": "New South Wales",         "countryCode": "AU",         "countryName": "Australia",         "lat": -31.7485,         "lng": 151.7512,         "name": "Woko National Park",         "toponymName": "Woko National Park"}
{         "adminName1": "New South Wales",         "countryCode": "AU",         "countryName": "Australia",         "lat": -30.5318,         "lng": 150.9346,         "name": "Warrabah National Park",         "toponymName": "Warrabah National Park"}
{         "adminName1": "New South Wales",         "countryCode": "AU",         "countryName": "Australia",         "lat": -31.1985,         "lng": 152.2262,         "name": "Werrikimbe National Park",         "toponymName": "Werrikimbe National Park"}
{         "adminName1": "New South Wales",         "countryCode": "AU",         "countryName": "Australia",         "lat": -28.4485,         "lng": 152.4429,         "name": "Tooloom National Park",         "toponymName": "Tooloom National Park"}
{         "adminName1": "New South Wales",         "countryCode": "AU",         "countryName": "Australia",         "lat": -28.4902,         "lng": 152.7262,         "name": "Toonumbar National Park",         "toponymName": "Toonumbar National Park"}
{         "adminName1": "New South Wales",         "countryCode": "AU",         "countryName": "Australia",         "lat": -33.5943,         "lng": 150.8929,         "name": "Scheyville National Park",         "toponymName": "Scheyville National Park"}
{         "adminName1": "New South Wales",         "countryCode": "AU",         "countryName": "Australia",         "lat": -32.8485,         "lng": 151.41789,         "name": "Werakata National Park",         "toponymName": "Werakata National Park"}
{         "adminName1": "New South Wales",         "countryCode": "AU",         "countryName": "Australia",         "lat": -33.1985,         "lng": 149.9346,         "name": "Turon National Park",         "toponymName": "Turon National Park"}
{         "adminName1": "Queensland",         "countryCode": "AU",         "countryName": "Australia",         "lat": -27.83333,         "lng": 150.10001,         "name": "Southwood National Park",         "toponymName": "Southwood National Park"}
{         "adminName1": "South Australia",         "countryCode": "AU",         "countryName": "Australia",         "lat": -26.37166,         "lng": 135.63028,         "name": "Witjira National Park",         "toponymName": "Witjira National Park"}
{         "adminName1": "Tasmania",         "countryCode": "AU",         "countryName": "Australia",         "lat": -41.31,         "lng": 145.39,         "name": "Savage River National Park",         "toponymName": "Savage River National Park"}
{         "adminName1": "Victoria",         "countryCode": "AU",         "countryName": "Australia",         "lat": -38.44958,         "lng": 146.53125,         "name": "Tarra-Bulga National Park",         "toponymName": "Tarra-Bulga National Park"}
{         "adminName1": "Victoria",         "countryCode": "AU",         "countryName": "Australia",         "lat": -37.97625,         "lng": 147.69014,         "name": "The Lakes National Park",         "toponymName": "The Lakes National Park"}
{         "adminName1": "New South Wales",         "countryCode": "AU",         "countryName": "Australia",         "lat": -34.1318,         "lng": 146.2179,         "name": "Cocoparra National Park",         "toponymName": "Cocoparra National Park"}
{         "adminName1": "New South Wales",         "countryCode": "AU",         "countryName": "Australia",         "lat": -33.7652,         "lng": 148.4679,         "name": "Conimbla National Park",         "toponymName": "Conimbla National Park"}
{         "adminName1": "New South Wales",         "countryCode": "AU",         "countryName": "Australia",         "lat": -35.9152,         "lng": 149.7512,         "name": "Deua National Park",         "toponymName": "Deua National Park"}
{         "adminName1": "New South Wales",         "countryCode": "AU",         "countryName": "Australia",         "lat": -30.5818,         "lng": 152.28461,         "name": "Cunnawarra National Park",         "toponymName": "Cunnawarra National Park"}
{         "adminName1": "Queensland",         "countryCode": "AU",         "countryName": "Australia",         "lat": -20.91094,         "lng": 149.03304,         "name": "Cape Hillsborough National Park",         "toponymName": "Cape Hillsborough National Park"}
{         "adminName1": "Queensland",         "countryCode": "AU",         "countryName": "Australia",         "lat": -21.58843,         "lng": 149.42886,         "name": "Cape Palmerston National Park",         "toponymName": "Cape Palmerston National Park"}
{         "adminName1": "Queensland",         "countryCode": "AU",         "countryName": "Australia",         "lat": -19.75122,         "lng": 147.80609,         "name": "Cape Upstart National Park",         "toponymName": "Cape Upstart National Park"}
{         "adminName1": "Queensland",         "countryCode": "AU",         "countryName": "Australia",         "lat": -21.93649,         "lng": 148.71637,         "name": "Dipperu National Park",         "toponymName": "Dipperu National Park"}
{         "adminName1": "Queensland",         "countryCode": "AU",         "countryName": "Australia",         "lat": -17.43568,         "lng": 146.05138,         "name": "Ella Bay National Park",         "toponymName": "Ella Bay National Park"}
{         "adminName1": "Queensland",         "countryCode": "AU",         "countryName": "Australia",         "lat": -26.70896,         "lng": 152.95996,         "name": "Eudlo Creek National Park",         "toponymName": "Eudlo Creek National Park"}
{         "adminName1": "Queensland",         "countryCode": "AU",         "countryName": "Australia",         "lat": -24.68119,         "lng": 150.98579,         "name": "Cania Gorge National Park",         "toponymName": "Cania Gorge National Park"}
{         "adminName1": "Queensland",         "countryCode": "AU",         "countryName": "Australia",         "lat": -26.17983,         "lng": 147.3692,         "name": "Chesterton Range National Park",         "toponymName": "Chesterton Range National Park"}
{         "adminName1": "Queensland",         "countryCode": "AU",         "countryName": "Australia",         "lat": -26.71563,         "lng": 152.58551,         "name": "Conondale National Park",         "toponymName": "Conondale National Park"}
{         "adminName1": "Queensland",         "countryCode": "AU",         "countryName": "Australia",         "lat": -15.80597,         "lng": 145.33249,         "name": "Cedar Bay National Park",         "toponymName": "Cedar Bay National Park"}
{         "adminName1": "Queensland",         "countryCode": "AU",         "countryName": "Australia",         "lat": -13.9371,         "lng": 143.75555,         "name": "Claremont Isles National Park",         "toponymName": "Claremont Isles National Park"}
{         "adminName1": "Queensland",         "countryCode": "AU",         "countryName": "Australia",         "lat": -14.21848,         "lng": 143.77417,         "name": "Cliff Island National Park",         "toponymName": "Cliff Island National Park"}
{         "adminName1": "Queensland",         "countryCode": "AU",         "countryName": "Australia",         "lat": -28.78735,         "lng": 144.55371,         "name": "Currawinya National Park",         "toponymName": "Currawinya National Park"}
{         "adminName1": "Queensland",         "countryCode": "AU",         "countryName": "Australia",         "lat": -23.5287,         "lng": 151.22217,         "name": "Curtis Island National Park",         "toponymName": "Curtis Island National Park"}
{         "adminName1": "Queensland",         "countryCode": "AU",         "countryName": "Australia",         "lat": -24.31314,         "lng": 151.93605,         "name": "Deepwater National Park",         "toponymName": "Deepwater National Park"}
{         "adminName1": "Queensland",         "countryCode": "AU",         "countryName": "Australia",         "lat": -11.16767,         "lng": 143.01527,         "name": "Denham Group National Park",         "toponymName": "Denham Group National Park"}
{         "adminName1": "Queensland",         "countryCode": "AU",         "countryName": "Australia",         "lat": -22.35011,         "lng": 146.70252,         "name": "Epping Forest National Park",         "toponymName": "Epping Forest National Park"}
{         "adminName1": "Queensland",         "countryCode": "AU",         "countryName": "Australia",         "lat": -17.94929,         "lng": 146.15999,         "name": "Family Islands National Park",         "toponymName": "Family Islands National Park"}
{         "adminName1": "Queensland",         "countryCode": "AU",         "countryName": "Australia",         "lat": -16.92819,         "lng": 145.99333,         "name": "Fitzroy Island National Park",         "toponymName": "Fitzroy Island National Park"}
{         "adminName1": "Queensland",         "countryCode": "AU",         "countryName": "Australia",         "lat": -27.41062,         "lng": 153.15106,         "name": "Fort Lytton National Park",         "toponymName": "Fort Lytton National Park"}
{         "adminName1": "Queensland",         "countryCode": "AU",         "countryName": "Australia",         "lat": -17.16235,         "lng": 146.01221,         "name": "Frankland Group National Park",         "toponymName": "Frankland Group National Park"}
{         "adminName1": "Queensland",         "countryCode": "AU",         "countryName": "Australia",         "lat": -27.17563,         "lng": 152.99051,         "name": "Freshwater National Park",         "toponymName": "Freshwater National Park"}
{         "adminName1": "Queensland",         "countryCode": "AU",         "countryName": "Australia",         "lat": -22.9265,         "lng": 146.30557,         "name": "Cudmore National Park",         "toponymName": "Cudmore National Park"}
{         "adminName1": "Queensland",         "countryCode": "AU",         "countryName": "Australia",         "lat": -17.00685,         "lng": 145.57576,         "name": "Davies Creek National Park",         "toponymName": "Davies Creek National Park"}
{         "adminName1": "Queensland",         "countryCode": "AU",         "countryName": "Australia",         "lat": -17.84556,         "lng": 146.09144,         "name": "Clump Mountain National Park",         "toponymName": "Clump Mountain National Park"}
{         "adminName1": "Queensland",         "countryCode": "AU",         "countryName": "Australia",         "lat": -17.11805,         "lng": 145.60362,         "name": "Danbulla National Park",         "toponymName": "Danbulla National Park"}
{         "adminName1": "Queensland",         "countryCode": "AU",         "countryName": "Australia",         "lat": -24.1675,         "lng": 151.31999,         "name": "Castle Tower National Park",         "toponymName": "Castle Tower National Park"}
{         "adminName1": "Queensland",         "countryCode": "AU",         "countryName": "Australia",         "lat": -15.43778,         "lng": 145.20805,         "name": "Endeavour River National Park",         "toponymName": "Endeavour River National Park"}
{         "adminName1": "Queensland",         "countryCode": "AU",         "countryName": "Australia",         "lat": -20.21806,         "lng": 148.56833,         "name": "Dryander National Park",         "toponymName": "Dryander National Park"}
{         "adminName1": "New South Wales",         "countryCode": "AU",         "countryName": "Australia",         "lat": -30.3818,         "lng": 152.7512,         "name": "Dorrigo National Park",         "toponymName": "Dorrigo National Park"}
{         "adminName1": "New South Wales",         "countryCode": "AU",         "countryName": "Australia",         "lat": -36.1221,         "lng": 150.1248,         "name": "Eurobodalla National Park",         "toponymName": "Eurobodalla National Park"}
{         "adminName1": "New South Wales",         "countryCode": "AU",         "countryName": "Australia",         "lat": -29.0818,         "lng": 147.0679,         "name": "Culgoa National Park",         "toponymName": "Culgoa National Park"}
{         "adminName1": "Queensland",         "countryCode": "AU",         "countryName": "Australia",         "lat": -18.095,         "lng": 144.84833,         "name": "Forty Mile Scrub National Park",         "toponymName": "Forty Mile Scrub National Park"}
{         "adminName1": "South Australia",         "countryCode": "AU",         "countryName": "Australia",         "lat": -31.36121,         "lng": 138.65366,         "name": "Flinders Ranges National Park",         "toponymName": "Flinders Ranges National Park"}
{         "adminName1": "South Australia",         "countryCode": "AU",         "countryName": "Australia",         "lat": -34.60701,         "lng": 135.33774,         "name": "Coffin Bay National Park",         "toponymName": "Coffin Bay National Park"}
{         "adminName1": "South Australia",         "countryCode": "AU",         "countryName": "Australia",         "lat": -37.70224,         "lng": 140.28104,         "name": "Canunda National Park",         "toponymName": "Canunda National Park"}
{         "adminName1": "Tasmania",         "countryCode": "AU",         "countryName": "Australia",         "lat": -41.77,         "lng": 148.19,         "name": "Douglas-Apsley National Park",         "toponymName": "Douglas-Apsley National Park"}
{         "adminName1": "Victoria",         "countryCode": "AU",         "countryName": "Australia",         "lat": -37.94931,         "lng": 145.25986,         "name": "Churchill National Park",         "toponymName": "Churchill National Park"}
{         "adminName1": "Western Australia",         "countryCode": "AU",         "countryName": "Australia",         "lat": -33.62371,         "lng": 123.3765,         "name": "Cape Arid National Park",         "toponymName": "Cape Arid National Park"}
{         "adminName1": "Western Australia",         "countryCode": "AU",         "countryName": "Australia",         "lat": -25.6993,         "lng": 113.5422,         "name": "Francois Peron National Park",         "toponymName": "Francois Peron National Park"}
{         "adminName1": "Western Australia",         "countryCode": "AU",         "countryName": "Australia",         "lat": -32.90346,         "lng": 120.2965,         "name": "Frank Hann National Park",         "toponymName": "Frank Hann National Park"}
{         "adminName1": "New South Wales",         "countryCode": "AU",         "countryName": "Australia",         "lat": -34.0985,         "lng": 150.9762,         "name": "Heathcote National Park",         "toponymName": "Heathcote National Park"}
{         "adminName1": "New South Wales",         "countryCode": "AU",         "countryName": "Australia",         "lat": -32.4985,         "lng": 142.3346,         "name": "Kinchega National Park",         "toponymName": "Kinchega National Park"}
{         "adminName1": "New South Wales",         "countryCode": "AU",         "countryName": "Australia",         "lat": -33.7068,         "lng": 151.2512,         "name": "Garigal National Park",         "toponymName": "Garigal National Park"}
{         "adminName1": "New South Wales",         "countryCode": "AU",         "countryName": "Australia",         "lat": -30.5096,         "lng": 145.71651,         "name": "Gundabooka National Park",         "toponymName": "Gundabooka National Park"}
{         "adminName1": "New South Wales",         "countryCode": "AU",         "countryName": "Australia",         "lat": -29.1546,         "lng": 150.9818,         "name": "Kwiambal National Park",         "toponymName": "Kwiambal National Park"}
{         "adminName1": "Queensland",         "countryCode": "AU",         "countryName": "Australia",         "lat": -17.97041,         "lng": 146.05276,         "name": "Hull River National Park",         "toponymName": "Hull River National Park"}
{         "adminName1": "Queensland",         "countryCode": "AU",         "countryName": "Australia",         "lat": -24.9204,         "lng": 144.7195,         "name": "Idalia National Park",         "toponymName": "Idalia National Park"}
{         "adminName1": "Queensland",         "countryCode": "AU",         "countryName": "Australia",         "lat": -12.65377,         "lng": 143.2964,         "name": "Iron Range National Park",         "toponymName": "Iron Range National Park"}
{         "adminName1": "Queensland",         "countryCode": "AU",         "countryName": "Australia",         "lat": -25.16917,         "lng": 149.94424,         "name": "Isla Gorge National Park",         "toponymName": "Isla Gorge National Park"}
{         "adminName1": "Queensland",         "countryCode": "AU",         "countryName": "Australia",         "lat": -23.17587,         "lng": 150.94786,         "name": "Keppel Bay Islands National Park",         "toponymName": "Keppel Bay Islands National Park"}
{         "adminName1": "Queensland",         "countryCode": "AU",         "countryName": "Australia",         "lat": -17.72725,         "lng": 146.09749,         "name": "Kurrimine Beach National Park",         "toponymName": "Kurrimine Beach National Park"}
{         "adminName1": "Queensland",         "countryCode": "AU",         "countryName": "Australia",         "lat": -18.1654,         "lng": 146.1711,         "name": "Goold Island National Park",         "toponymName": "Goold Island National Park"}
{         "adminName1": "Queensland",         "countryCode": "AU",         "countryName": "Australia",         "lat": -16.76124,         "lng": 145.96944,         "name": "Green Island National Park",         "toponymName": "Green Island National Park"}
{         "adminName1": "Queensland",         "countryCode": "AU",         "countryName": "Australia",         "lat": -18.38179,         "lng": 146.22667,         "name": "Hinchinbrook Island National Park",         "toponymName": "Hinchinbrook Island National Park"}
{         "adminName1": "Queensland",         "countryCode": "AU",         "countryName": "Australia",         "lat": -15.74847,         "lng": 145.44443,         "name": "Hope Islands National Park",         "toponymName": "Hope Islands National Park"}
{         "adminName1": "Queensland",         "countryCode": "AU",         "countryName": "Australia",         "lat": -26.92563,         "lng": 152.94469,         "name": "Glass House Mountains National Park",         "toponymName": "Glass House Mountains National Park"}
{         "adminName1": "Queensland",         "countryCode": "AU",         "countryName": "Australia",         "lat": -23.27815,         "lng": 149.73747,         "name": "Goodedulla National Park",         "toponymName": "Goodedulla National Park"}
{         "adminName1": "Queensland",         "countryCode": "AU",         "countryName": "Australia",         "lat": -18.88234,         "lng": 146.26833,         "name": "Halifax Bay Wetlands National Park",         "toponymName": "Halifax Bay Wetlands National Park"}
{         "adminName1": "Queensland",         "countryCode": "AU",         "countryName": "Australia",         "lat": -19.72733,         "lng": 148.35915,         "name": "Holbourne Island National Park",         "toponymName": "Holbourne Island National Park"}
{         "adminName1": "Queensland",         "countryCode": "AU",         "countryName": "Australia",         "lat": -25.28925,         "lng": 151.8994,         "name": "Goodnight Scrub National Park",         "toponymName": "Goodnight Scrub National Park"}
{         "adminName1": "Queensland",         "countryCode": "AU",         "countryName": "Australia",         "lat": -17.04056,         "lng": 145.84888,         "name": "Grey Peaks National Park",         "toponymName": "Grey Peaks National Park"}
{         "adminName1": "Queensland",         "countryCode": "AU",         "countryName": "Australia",         "lat": -17.73806,         "lng": 145.88834,         "name": "Japoon National Park",         "toponymName": "Japoon National Park"}
{         "adminName1": "Queensland",         "countryCode": "AU",         "countryName": "Australia",         "lat": -24.99833,         "lng": 153.26778,         "name": "Great Sandy National Park",         "toponymName": "Great Sandy National Park"}
{         "adminName1": "Queensland",         "countryCode": "AU",         "countryName": "Australia",         "lat": -26.67444,         "lng": 152.83472,         "name": "Kondalilla National Park",         "toponymName": "Kondalilla National Park"}
{         "adminName1": "South Australia",         "countryCode": "AU",         "countryName": "Australia",         "lat": -32.58015,         "lng": 135.43822,         "name": "Gawler Ranges National Park",         "toponymName": "Gawler Ranges National Park"}
{         "adminName1": "South Australia",         "countryCode": "AU",         "countryName": "Australia",         "lat": -35.21962,         "lng": 136.88687,         "name": "Innes National Park",         "toponymName": "Innes National Park"}
{         "adminName1": "Tasmania",         "countryCode": "AU",         "countryName": "Australia",         "lat": -43.23,         "lng": 146.75,         "name": "Hartz Mountains National Park",         "toponymName": "Hartz Mountains National Park"}
{         "adminName1": "Victoria",         "countryCode": "AU",         "countryName": "Australia",         "lat": -34.70872,         "lng": 142.40393,         "name": "Hattah-Kulkyne National Park",         "toponymName": "Hattah-Kulkyne National Park"}
{         "adminName1": "Western Australia",         "countryCode": "AU",         "countryName": "Australia",         "lat": -18.045,         "lng": 125.7556,         "name": "Geikie Gorge National Park",         "toponymName": "Geikie Gorge National Park"}
{         "adminName1": "Western Australia",         "countryCode": "AU",         "countryName": "Australia",         "lat": -34.45353,         "lng": 116.0543,         "name": "Gloucester National Park",         "toponymName": "Gloucester National Park"}
{         "adminName1": "Western Australia",         "countryCode": "AU",         "countryName": "Australia",         "lat": -31.90711,         "lng": 116.059,         "name": "Greenmount National Park",         "toponymName": "Greenmount National Park"}
{         "adminName1": "Western Australia",         "countryCode": "AU",         "countryName": "Australia",         "lat": -34.66628,         "lng": 118.3329,         "name": "Hassell National Park",         "toponymName": "Hassell National Park"}
{         "adminName1": "Western Australia",         "countryCode": "AU",         "countryName": "Australia",         "lat": -31.88306,         "lng": 116.0867,         "name": "John Forrest National Park",         "toponymName": "John Forrest National Park"}
{         "adminName1": "Western Australia",         "countryCode": "AU",         "countryName": "Australia",         "lat": -31.95906,         "lng": 116.0751,         "name": "Kalamunda National Park",         "toponymName": "Kalamunda National Park"}
{         "adminName1": "New South Wales",         "countryCode": "AU",         "countryName": "Australia",         "lat": -33.5318,         "lng": 151.0679,         "name": "Marramarra National Park",         "toponymName": "Marramarra National Park"}
{         "adminName1": "New South Wales",         "countryCode": "AU",         "countryName": "Australia",         "lat": -35.2318,         "lng": 150.2012,         "name": "Morton National Park",         "toponymName": "Morton National Park"}
{         "adminName1": "New South Wales",         "countryCode": "AU",         "countryName": "Australia",         "lat": -35.6318,         "lng": 150.3179,         "name": "Murramarang National Park",         "toponymName": "Murramarang National Park"}
{         "adminName1": "Western Australia",         "countryCode": "AU",         "countryName": "Australia",         "lat": -34.27298,         "lng": 115.2307,         "name": "Scott National Park",         "toponymName": "Scott National Park"}
{         "adminName1": "Western Australia",         "countryCode": "AU",         "countryName": "Australia",         "lat": -29.81126,         "lng": 115.4853,         "name": "Tathra National Park",         "toponymName": "Tathra National Park"}
{         "adminName1": "Western Australia",         "countryCode": "AU",         "countryName": "Australia",         "lat": -30.16682,         "lng": 115.8381,         "name": "Watheroo National Park",         "toponymName": "Watheroo National Park"}
{         "adminName1": "Western Australia",         "countryCode": "AU",         "countryName": "Australia",         "lat": -35.01602,         "lng": 117.1549,         "name": "William Bay National Park",         "toponymName": "William Bay National Park"}
{         "adminName1": "Western Australia",         "countryCode": "AU",         "countryName": "Australia",         "lat": -32.92157,         "lng": 115.6965,         "name": "Yalgorup National Park",         "toponymName": "Yalgorup National Park"}
{         "adminName1": "Western Australia",         "countryCode": "AU",         "countryName": "Australia",         "lat": -31.53406,         "lng": 115.6804,         "name": "Yanchep National Park",         "toponymName": "Yanchep National Park"}
{         "adminName1": "Limón",         "countryCode": "CR",         "countryName": "Costa Rica",         "lat": 10.54143,         "lng": -83.50211,         "name": "Tortuguero National Park",         "toponymName": "Tortuguero National Park"}
{         "adminName1": "East",         "countryCode": "CM",         "countryName": "Cameroon",         "lat": 2.29231,         "lng": 15.68933,         "name": "Lobéké National Park",         "toponymName": "Lobéké National Park"}
{         "adminName1": "Cabo Delgado",         "countryCode": "MZ",         "countryName": "Mozambique",         "lat": -12.14559,         "lng": 40.56266,         "name": "Quirimbas National Park",         "toponymName": "Quirimbas National Park"}
{         "adminName1": "Western Australia",         "countryCode": "AU",         "countryName": "Australia",         "lat": -30.5995,         "lng": 115.16453,         "name": "Nambung National Park",         "toponymName": "Nambung National Park"}
{         "adminName1": "Victoria",         "countryCode": "AU",         "countryName": "Australia",         "lat": -37.20887,         "lng": 142.39809,         "name": "Grampians National Park",         "toponymName": "Grampians National Park"}
{         "adminName1": "New South Wales",         "countryCode": "AU",         "countryName": "Australia",         "lat": -35.9985,         "lng": 148.3346,         "name": "Kosciuszko National Park",         "toponymName": "Kosciuszko National Park"}
{         "adminName1": "New South Wales",         "countryCode": "AU",         "countryName": "Australia",         "lat": -29.3652,         "lng": 152.3346,         "name": "Washpool National Park",         "toponymName": "Washpool National Park"}
{         "adminName1": "Ogooué-Ivindo",         "countryCode": "GA",         "countryName": "Gabon",         "lat": -0.44112,         "lng": 11.52481,         "name": "Lope National Park",         "toponymName": "Lope National Park"}
{         "adminName1": "Victoria",         "countryCode": "AU",         "countryName": "Australia",         "lat": -35.56542,         "lng": 142.11792,         "name": "Wyperfeld National Park",         "toponymName": "Wyperfeld National Park"}
{         "adminName1": "Aragua",         "countryCode": "VE",         "countryName": "Venezuela",         "lat": 10.38382,         "lng": -67.61845,         "name": "Henri Pittier National Park",         "toponymName": "Henri Pittier National Park"}
{         "adminName1": "South Australia",         "countryCode": "AU",         "countryName": "Australia",         "lat": -35.92897,         "lng": 136.72208,         "name": "Flinders Chase National Park",         "toponymName": "Flinders Chase National Park"}
{         "adminName1": "Cochabamba",         "countryCode": "BO",         "countryName": "Bolivia",         "lat": -17.38333,         "lng": -65.05,         "name": "Carrasco National Park",         "toponymName": "Carrasco National Park"}
{         "adminName1": "Southern",         "countryCode": "LK",         "countryName": "Sri Lanka",         "lat": 6.1874,         "lng": 81.1974,         "name": "Bundala National Park",         "toponymName": "Bundala National Park"}
{         "adminName1": "Puntarenas",         "countryCode": "CR",         "countryName": "Costa Rica",         "lat": 9.40207,         "lng": -84.13824,         "name": "Manuel Antonio National Park",         "toponymName": "Manuel Antonio National Park"}
{         "adminName1": "Cartago",         "countryCode": "CR",         "countryName": "Costa Rica",         "lat": 9.97291,         "lng": -83.69762,         "name": "Guayabo National Monument",         "toponymName": "Guayabo National Park"}
{         "adminName1": "Muchinga Province",         "countryCode": "ZM",         "countryName": "Zambia",         "lat": -12.11108,         "lng": 32.10562,         "name": "North Luangwa National Park",         "toponymName": "North Luangwa National Park"}
{         "adminName1": "Southern",         "countryCode": "ZM",         "countryName": "Zambia",         "lat": -17.87702,         "lng": 25.81886,         "name": "Mosi-Oa-Tunya National Park No. 17",         "toponymName": "Mosi-Oa-Tunya National Park No. 17"}
{         "adminName1": "Muchinga Province",         "countryCode": "ZM",         "countryName": "Zambia",         "lat": -12.376,         "lng": 30.85855,         "name": "Lavushi Manda National Park",         "toponymName": "Lavushi Manda National Park"}
{         "adminName1": "Muchinga Province",         "countryCode": "ZM",         "countryName": "Zambia",         "lat": -13.12557,         "lng": 31.60569,         "name": "South Luangwa National Park",         "toponymName": "South Luangwa National Park"}
{         "adminName1": "Punjab",         "countryCode": "PK",         "countryName": "Pakistan",         "lat": 30.95987,         "lng": 71.19955,         "name": "Māchhu National Park",         "toponymName": "Māchhu National Park"}
{         "adminName1": "Arusha",         "countryCode": "TZ",         "countryName": "Tanzania",         "lat": -3.25,         "lng": 36.91667,         "name": "Ngurdoto Crater National Park",         "toponymName": "Ngurdoto Crater National Park"}
{         "adminName1": "Manicaland",         "countryCode": "ZW",         "countryName": "Zimbabwe",         "lat": -18.28478,         "lng": 32.79323,         "name": "Rhodes Inyanga National Park",         "toponymName": "Rhodes Inyanga National Park"}
{         "adminName1": "Taita Taveta",         "countryCode": "KE",         "countryName": "Kenya",         "lat": -2.91667,         "lng": 37.91667,         "name": "Tsavo National Park West",         "toponymName": "Tsavo National Park West"}
{         "adminName1": "Western Australia",         "countryCode": "AU",         "countryName": "Australia",         "lat": -30.41238,         "lng": 115.422,         "name": "Badgingarra National Park",         "toponymName": "Badgingarra National Park"}
{         "adminName1": "Queensland",         "countryCode": "AU",         "countryName": "Australia",         "lat": -19.09195,         "lng": 146.30028,         "name": "Paluma Range National Park",         "toponymName": "Paluma Range National Park"}
{         "adminName1": "Western Australia",         "countryCode": "AU",         "countryName": "Australia",         "lat": -17.41748,         "lng": 124.9782,         "name": "Windjana Gorge National Park",         "toponymName": "Windjana Gorge National Park"}
{         "adminName1": "",         "countryCode": "NP",         "countryName": "Nepal",         "lat": 27.97466,         "lng": 85.45947,         "name": "Lāṅtāṅ National Park",         "toponymName": "Lāṅtāṅ National Park"}
{         "adminName1": "Northern Territory",         "countryCode": "AU",         "countryName": "Australia",         "lat": -13.03639,         "lng": 132.43972,         "name": "Kakadu National Park",         "toponymName": "Kakadu National Park"}
{         "adminName1": "Punjab",         "countryCode": "PK",         "countryName": "Pakistan",         "lat": 31.29471,         "lng": 71.05283,         "name": "National Park Block Number Two",         "toponymName": "National Park Block Number Two"}
{         "adminName1": "Queensland",         "countryCode": "AU",         "countryName": "Australia",         "lat": -17.285,         "lng": 145.97388,         "name": "Russell River National Park",         "toponymName": "Russell River National Park"}
{         "adminName1": "Queensland",         "countryCode": "AU",         "countryName": "Australia",         "lat": -16.87374,         "lng": 145.66138,         "name": "Barron Gorge National Park",         "toponymName": "Barron Gorge National Park"}
{         "adminName1": "Western Australia",         "countryCode": "AU",         "countryName": "Australia",         "lat": -30.13155,         "lng": 115.1326,         "name": "Lesueur National Park",         "toponymName": "Lesueur National Park"}
{         "adminName1": "Queensland",         "countryCode": "AU",         "countryName": "Australia",         "lat": -17.42291,         "lng": 145.96027,         "name": "Eubenangee Swamp National Park",         "toponymName": "Eubenangee Swamp National Park"}
{         "adminName1": "Ogooué-Maritime",         "countryCode": "GA",         "countryName": "Gabon",         "lat": -2.15419,         "lng": 9.58969,         "name": "Loango National Park",         "toponymName": "Loango National Park"}
{         "adminName1": "Naouri",         "countryCode": "BF",         "countryName": "Burkina Faso",         "lat": 11.45,         "lng": -1.41667,         "name": "Kabore Tambi National Park",         "toponymName": "Kabore Tambi National Park"}
{         "adminName1": "Auvergne-Rhône-Alpes",         "countryCode": "FR",         "countryName": "France",         "lat": 45.3333,         "lng": 6.8333,         "name": "Vanoise National Park",         "toponymName": "Vanoise National Park"}
{         "adminName1": "Arizona",         "countryCode": "US",         "countryName": "United States",         "lat": 35.95221,         "lng": -112.14684,         "name": "Grand Canyon National Park Airport",         "toponymName": "Grand Canyon National Park Airport"}
{         "adminName1": "New South Wales",         "countryCode": "AU",         "countryName": "Australia",         "lat": -28.85261,         "lng": 152.05627,         "name": "Bald Rock National Park",         "toponymName": "Bald Rock National Park Boonoo Boonoo"}
{         "adminName1": "New South Wales",         "countryCode": "AU",         "countryName": "Australia",         "lat": -30.4152,         "lng": 152.7012,         "name": "Bellinger River National Park",         "toponymName": "Bellinger River National Park"}
{         "adminName1": "Queensland",         "countryCode": "AU",         "countryName": "Australia",         "lat": -14.66763,         "lng": 145.46173,         "name": "Lizard Island National Park",         "toponymName": "Lizard Island National Park"}
{         "adminName1": "Western Australia",         "countryCode": "AU",         "countryName": "Australia",         "lat": -34.77162,         "lng": 116.73786,         "name": "Mount Frankland National Park",         "toponymName": "Mount Frankland National Park"}
{         "adminName1": "New South Wales",         "countryCode": "AU",         "countryName": "Australia",         "lat": -32.4318,         "lng": 152.36791,         "name": "Myall Lakes National Park",         "toponymName": "Myall Lakes National Park"}
{         "adminName1": "Western Australia",         "countryCode": "AU",         "countryName": "Australia",         "lat": -32.37406,         "lng": 116.0126,         "name": "Serpentine National Park",         "toponymName": "Serpentine National Park"}
{         "adminName1": "Western Australia",         "countryCode": "AU",         "countryName": "Australia",         "lat": -33.83901,         "lng": 121.164,         "name": "Stokes National Park",         "toponymName": "Stokes National Park"}
{         "adminName1": "Western Australia",         "countryCode": "AU",         "countryName": "Australia",         "lat": -31.72044,         "lng": 116.0726,         "name": "Walyunga National Park",         "toponymName": "Walyunga National Park"}
{         "adminName1": "Montana",         "countryCode": "US",         "countryName": "United States",         "lat": 48.68318,         "lng": -113.80017,         "name": "Glacier National Park",         "toponymName": "Glacier National Park"}
{         "adminName1": "",         "countryCode": "NZ",         "countryName": "New Zealand",         "lat": -43.5,         "lng": 170.16667,         "name": "Westland National Park",         "toponymName": "Westland National Park"}
{         "adminName1": "",         "countryCode": "NZ",         "countryName": "New Zealand",         "lat": -38.5,         "lng": 177.5,         "name": "Urewera National Park",         "toponymName": "Urewera National Park"}
{         "adminName1": "Victoria",         "countryCode": "AU",         "countryName": "Australia",         "lat": -38.91664,         "lng": 146.33334,         "name": "Wilsons Promontory National Park",         "toponymName": "Wilsons Promontory National Park"}
{         "adminName1": "",         "countryCode": "LS",         "countryName": "Lesotho",         "lat": -29.90289,         "lng": 29.1162,         "name": "Sehlabathebe National Park",         "toponymName": "Sehlabathebe National Park"}
{         "adminName1": "",         "countryCode": "ZW",         "countryName": "Zimbabwe",         "lat": -19.91667,         "lng": 33.01667,         "name": "Chimanimani National Park",         "toponymName": "Chimanimani National Park"}
{         "adminName1": "",         "countryCode": "NG",         "countryName": "Nigeria",         "lat": 7.49475,         "lng": 11.57321,         "name": "Gashaka National Park",         "toponymName": "Gashaka National Park"}
{         "adminName1": "Oppland",         "countryCode": "NO",         "countryName": "Norway",         "lat": 61.9,         "lng": 9.75,         "name": "Rondane National Park",         "toponymName": "Rondane National Park"}
{         "adminName1": "",         "countryCode": "DM",         "countryName": "Dominica",         "lat": 15.33333,         "lng": -61.28333,         "name": "National Park",         "toponymName": "National Park"}
{         "adminName1": "Republic of Srspka",         "countryCode": "BA",         "countryName": "Bosnia and Herzegovina",         "lat": 43.3,         "lng": 18.75,         "name": "Sutjeska National Park",         "toponymName": "Sutjeska National Park"}
{         "adminName1": "Western Region",         "countryCode": "UG",         "countryName": "Uganda",         "lat": -1.36667,         "lng": 29.65,         "name": "Mgahinga Gorilla National Park",         "toponymName": "Mgahinga Gorilla National Park"}
{         "adminName1": "Western Region",         "countryCode": "UG",         "countryName": "Uganda",         "lat": 0.5,         "lng": 30.4,         "name": "Kibale National Park",         "toponymName": "Kibale National Park"}
{         "adminName1": "",         "countryCode": "HR",         "countryName": "Croatia",         "lat": 44.44359,         "lng": 15.29022,         "name": "Paklenica National Park",         "toponymName": "Paklenica National Park"}
{         "adminName1": "",         "countryCode": "HR",         "countryName": "Croatia",         "lat": 43.79291,         "lng": 15.32593,         "name": "Kornati National Park",         "toponymName": "Kornati National Park"}
{         "adminName1": "",         "countryCode": "HR",         "countryName": "Croatia",         "lat": 44.91838,         "lng": 13.75145,         "name": "Brijuni National Park",         "toponymName": "Brijuni National Park"}
{         "adminName1": "Gaza",         "countryCode": "MZ",         "countryName": "Mozambique",         "lat": -22.77618,         "lng": 32.79968,         "name": "Banhine National Park",         "toponymName": "Banhine National Park"}
{         "adminName1": "",         "countryCode": "MG",         "countryName": "Madagascar",         "lat": -22.33754,         "lng": 43.35097,         "name": "Mikea National Park",         "toponymName": "Mikea National Park"}
{         "adminName1": "",         "countryCode": "GW",         "countryName": "Guinea-Bissau",         "lat": 10.9505,         "lng": -15.71522,         "name": "João Vieira And Poilão Marine National Park",         "toponymName": "João Vieira And Poilão Marine National Park"}
{         "adminName1": "",         "countryCode": "KG",         "countryName": "Kyrgyzstan",         "lat": 41.97442,         "lng": 75.76478,         "name": "Kara-Shoro National Park",         "toponymName": "Kara-Shoro National Park"}
{         "adminName1": "Ruhengeri",         "countryCode": "RW",         "countryName": "Rwanda",         "lat": -1.48333,         "lng": 29.53333,         "name": "Volcanoes National Park",         "toponymName": "Volcanoes National Park"}
{         "adminName1": "",         "countryCode": "RS",         "countryName": "Serbia",         "lat": 43.30369,         "lng": 20.8033,         "name": "Kopaonik National Park",         "toponymName": "Kopaonik National Park"}
